<?xml version="1.0" encoding="UTF-8"?>
<kml xmlns="http://www.opengis.net/kml/2.2" xmlns:gx="http://www.google.com/kml/ext/2.2" xmlns:kml="http://www.opengis.net/kml/2.2" xmlns:atom="http://www.w3.org/2005/Atom"><Document>
<Placemark>
	<name>Nap HH 111 HH</name>
	<Style>
	<IconStyle>
	<Icon><href>http://maps.google.com/mapfiles/kml/paddle/wht-blank.png</href></Icon>
	<color>ff0099ff</color>
	</IconStyle>
	</Style>
	<Point><coordinates>-66.8963123695,10.479801834,0</coordinates></Point>
</Placemark>
<Placemark>
	<name>Nap HH 112 HH</name>
	<Style>
	<IconStyle>
	<Icon><href>http://maps.google.com/mapfiles/kml/paddle/wht-blank.png</href></Icon>
	<color>ff0099ff</color>
	</IconStyle>
	</Style>
	<Point><coordinates>-66.8962858827,10.4798113948,0</coordinates></Point>
</Placemark>
<Placemark>
	<name>Nap HH 113 HH</name>
	<Style>
	<IconStyle>
	<Icon><href>http://maps.google.com/mapfiles/kml/paddle/wht-blank.png</href></Icon>
	<color>ff0099ff</color>
	</IconStyle>
	</Style>
	<Point><coordinates>-66.8962600664,10.4798186479,0</coordinates></Point>
</Placemark>
<Placemark>
	<name>Nap HH 114 HH</name>
	<Style>
	<IconStyle>
	<Icon><href>http://maps.google.com/mapfiles/kml/paddle/wht-blank.png</href></Icon>
	<color>ff0099ff</color>
	</IconStyle>
	</Style>
	<Point><coordinates>-66.8962362618,10.4798275493,0</coordinates></Point>
</Placemark>
<Placemark>
	<name>Nap HH 115 VAS</name>
	<Style>
	<IconStyle>
	<Icon><href>http://maps.google.com/mapfiles/kml/paddle/wht-blank.png</href></Icon>
	<color>ff0099ff</color>
	</IconStyle>
	</Style>
	<Point><coordinates>-66.8952658854,10.4805527823,0</coordinates></Point>
</Placemark>
<Placemark>
	<name>Nap HH 116 Forle</name>
	<Style>
	<IconStyle>
	<Icon><href>http://maps.google.com/mapfiles/kml/paddle/wht-blank.png</href></Icon>
	<color>ff0099ff</color>
	</IconStyle>
	</Style>
	<Point><coordinates>-66.8952439286,10.4807308982,0</coordinates></Point>
</Placemark>
<Placemark>
	<name>Nap HH 117 Urbanismo</name>
	<Style>
	<IconStyle>
	<Icon><href>http://maps.google.com/mapfiles/kml/paddle/wht-blank.png</href></Icon>
	<color>ff0099ff</color>
	</IconStyle>
	</Style>
	<Point><coordinates>-66.8950890154,10.4811762661,0</coordinates></Point>
</Placemark>
<Placemark>
	<name>Nap HH 118 Bimbolandia</name>
	<Style>
	<IconStyle>
	<Icon><href>http://maps.google.com/mapfiles/kml/paddle/wht-blank.png</href></Icon>
	<color>ff00ff00</color>
	</IconStyle>
	</Style>
	<Point><coordinates>-66.8955316551,10.4820648274,0</coordinates></Point>
</Placemark>
<Placemark>
	<name>Nap HH 221 Marco</name>
	<Style>
	<IconStyle>
	<Icon><href>http://maps.google.com/mapfiles/kml/paddle/wht-blank.png</href></Icon>
	<color>ff0099ff</color>
	</IconStyle>
	</Style>
	<Point><coordinates>-66.8961232116,10.4805042925,0</coordinates></Point>
</Placemark>
<Placemark>
	<name>Nap HH 222 Atabapo</name>
	<Style>
	<IconStyle>
	<Icon><href>http://maps.google.com/mapfiles/kml/paddle/wht-blank.png</href></Icon>
	<color>ff0099ff</color>
	</IconStyle>
	</Style>
	<Point><coordinates>-66.8962009956,10.480721883,0</coordinates></Point>
</Placemark>
<Placemark>
	<name>Nap HH 223 Atabapo</name>
	<Style>
	<IconStyle>
	<Icon><href>http://maps.google.com/mapfiles/kml/paddle/wht-blank.png</href></Icon>
	<color>ff0099ff</color>
	</IconStyle>
	</Style>
	<Point><coordinates>-66.8962492754,10.4806981459,0</coordinates></Point>
</Placemark>
<Placemark>
	<name>Nap HH 224 Marco</name>
	<Style>
	<IconStyle>
	<Icon><href>http://maps.google.com/mapfiles/kml/paddle/wht-blank.png</href></Icon>
	<color>ff0099ff</color>
	</IconStyle>
	</Style>
	<Point><coordinates>-66.8961059281,10.4805129416,0</coordinates></Point>
</Placemark>
<Placemark>
	<name>Nap HH 225 Jean Pier</name>
	<Style>
	<IconStyle>
	<Icon><href>http://maps.google.com/mapfiles/kml/paddle/wht-blank.png</href></Icon>
	<color>ff00ff00</color>
	</IconStyle>
	</Style>
	<Point><coordinates>-66.8968292317,10.4797804823,0</coordinates></Point>
</Placemark>
<Placemark>
	<name>Nap HH 331 Caracas</name>
	<Style>
	<IconStyle>
	<Icon><href>http://maps.google.com/mapfiles/kml/paddle/wht-blank.png</href></Icon>
	<color>ff0099ff</color>
	</IconStyle>
	</Style>
	<Point><coordinates>-66.8956575144,10.481987333,0</coordinates></Point>
</Placemark>
<Placemark>
	<name>Nap HH 332 San Rafael</name>
	<Style>
	<IconStyle>
	<Icon><href>http://maps.google.com/mapfiles/kml/paddle/wht-blank.png</href></Icon>
	<color>ff0099ff</color>
	</IconStyle>
	</Style>
	<Point><coordinates>-66.8959054736,10.4819530668,0</coordinates></Point>
</Placemark>
<Placemark>
	<name>Nap HH 333 Fatima</name>
	<Style>
	<IconStyle>
	<Icon><href>http://maps.google.com/mapfiles/kml/paddle/wht-blank.png</href></Icon>
	<color>ff0099ff</color>
	</IconStyle>
	</Style>
	<Point><coordinates>-66.8961054862,10.4819121067,0</coordinates></Point>
</Placemark>
<Placemark>
	<name>Nap HH 335 Angel</name>
	<Style>
	<IconStyle>
	<Icon><href>http://maps.google.com/mapfiles/kml/paddle/wht-blank.png</href></Icon>
	<color>ff0099ff</color>
	</IconStyle>
	</Style>
	<Point><coordinates>-66.8962973957,10.4817135036,0</coordinates></Point>
</Placemark>
<Placemark>
	<name>Nap HH 334 Murachi</name>
	<Style>
	<IconStyle>
	<Icon><href>http://maps.google.com/mapfiles/kml/paddle/wht-blank.png</href></Icon>
	<color>ff0099ff</color>
	</IconStyle>
	</Style>
	<Point><coordinates>-66.8958748684,10.4815782864,0</coordinates></Point>
</Placemark>
<Placemark>
	<name>Nap HH 336 Paseo los Ilustres</name>
	<Style>
	<IconStyle>
	<Icon><href>http://maps.google.com/mapfiles/kml/paddle/wht-blank.png</href></Icon>
	<color>ff0099ff</color>
	</IconStyle>
	</Style>
	<Point><coordinates>-66.8959006642,10.482544042,0</coordinates></Point>
</Placemark>
<Placemark>
	<name>Nap HH 337 Paseo los Ilustres</name>
	<Style>
	<IconStyle>
	<Icon><href>http://maps.google.com/mapfiles/kml/paddle/wht-blank.png</href></Icon>
	<color>ff0099ff</color>
	</IconStyle>
	</Style>
	<Point><coordinates>-66.8961841087,10.4825086748,0</coordinates></Point>
</Placemark>
<Placemark>
	<name>Nap HH 441 Jar</name>
	<Style>
	<IconStyle>
	<Icon><href>http://maps.google.com/mapfiles/kml/paddle/wht-blank.png</href></Icon>
	<color>ff0099ff</color>
	</IconStyle>
	</Style>
	<Point><coordinates>-66.8954314714,10.4812393599,0</coordinates></Point>
</Placemark>
<Placemark>
	<name>Nap HH 442 Madre Kabrini</name>
	<Style>
	<IconStyle>
	<Icon><href>http://maps.google.com/mapfiles/kml/paddle/wht-blank.png</href></Icon>
	<color>ff0099ff</color>
	</IconStyle>
	</Style>
	<Point><coordinates>-66.8955579284,10.480964017,0</coordinates></Point>
</Placemark>
<Placemark>
	<name>Nap HH 443 Calador</name>
	<Style>
	<IconStyle>
	<Icon><href>http://maps.google.com/mapfiles/kml/paddle/wht-blank.png</href></Icon>
	<color>ff0099ff</color>
	</IconStyle>
	</Style>
	<Point><coordinates>-66.8954953462,10.4811096747,0</coordinates></Point>
</Placemark>
<Placemark>
	<name>Nap HH 444 Santa Maria</name>
	<Style>
	<IconStyle>
	<Icon><href>http://maps.google.com/mapfiles/kml/paddle/wht-blank.png</href></Icon>
	<color>ff0099ff</color>
	</IconStyle>
	</Style>
	<Point><coordinates>-66.895651098,10.4805493333,0</coordinates></Point>
</Placemark>
<Placemark>
	<name>Nap HH 445 Maklan</name>
	<Style>
	<IconStyle>
	<Icon><href>http://maps.google.com/mapfiles/kml/paddle/wht-blank.png</href></Icon>
	<color>ff0099ff</color>
	</IconStyle>
	</Style>
	<Point><coordinates>-66.8956937776,10.4807074474,0</coordinates></Point>
</Placemark>
<Placemark>
	<name>Nap HH 446 Orituco</name>
	<Style>
	<IconStyle>
	<Icon><href>http://maps.google.com/mapfiles/kml/paddle/wht-blank.png</href></Icon>
	<color>ff0099ff</color>
	</IconStyle>
	</Style>
	<Point><coordinates>-66.8956916787,10.4812853721,0</coordinates></Point>
</Placemark>
<Placemark>
	<name>Nap HH 447 Urbanismo</name>
	<Style>
	<IconStyle>
	<Icon><href>http://maps.google.com/mapfiles/kml/paddle/wht-blank.png</href></Icon>
	<color>ff0099ff</color>
	</IconStyle>
	</Style>
	<Point><coordinates>-66.895129138,10.4811822374,0</coordinates></Point>
</Placemark>
</Document></kml>